[
  {
    "name": "M/s. Sriram Eco Raksha Computer Services Pvt. Ltd.",
    "address": "B-29, KSSIDC Indl. Estate, Bommasandra, Hosur Road, Anekal Taluk, Bangalore – 560099",
    "capacity": 360,
    "location": { "type": "Point", "coordinates": [77.6908, 12.8390], "area": "Bommasandra" }
  },
  {
    "name": "M/s. E-Friendly Waste Recyclers",
    "address": "First Floor, No. 17 1st Cross, Azeez Sait Industrial Town, Nayandahalli, Bangalore-560039",
    "capacity": 300,
    "location": { "type": "Point", "coordinates": [77.5160, 13.0260], "area": "Peenya/Nayandahalli" }
  },
  {
    "name": "M/s. Eco Globe E-Waste Recyclers",
    "address": "Plot No. 87, 2nd Phase, 2nd Sector, Bidadi Industrial Area, Bidadi, Ramanagaram",
    "capacity": 1200,
    "location": { "type": "Point", "coordinates": [77.4510, 12.8000], "area": "Bidadi" }
  },
  {
    "name": "M/s. E-Hasiru",
    "address": "No. 168/B, 1st Floor, 7th Main Road, 3rd Phase, Peenya Industrial Area, Bangalore",
    "capacity": 300,
    "location": { "type": "Point", "coordinates": [77.5160, 13.0260], "area": "Peenya" }
  },
  {
    "name": "M/s. Green Enabled IT Solutions Pvt. Ltd.",
    "address": "No. 2/1, 27th Cross, Banashankari 2nd Stage, Bengaluru",
    "capacity": 600,
    "location": { "type": "Point", "coordinates": [77.5670, 12.9220], "area": "Banashankari" }
  },
  {
    "name": "M/s. Coral Waters",
    "address": "No. 8E, KIADB Industrial Area, Hoskote Taluk, Bangalore Rural District",
    "capacity": 720,
    "location": { "type": "Point", "coordinates": [77.7610, 13.0330], "area": "Hoskote" }
  },
  {
    "name": "M/s. Royal Touch",
    "address": "No. 3/2, 2nd Cross, Ezakiel Industrial Estate, K. G Halli, Nagawara Main Road, Bangalore",
    "capacity": 360,
    "location": { "type": "Point", "coordinates": [77.6170, 13.0410], "area": "Nagawara" }
  },
  {
    "name": "M/s. Pharmateck Consultancy",
    "address": "Sy. No. 40/1, Mangammanapalya, Bommanahalli",
    "capacity": 300,
    "location": { "type": "Point", "coordinates": [77.6060, 12.9260], "area": "Bommanahalli" }
  },
  {
    "name": "M/s. Cerebra Integrated Technologies Ltd.",
    "address": "Plot No. 41 to 46, Appasandra village, KIADB Indl. Area, Narasapura Hobli, Kolar",
    "capacity": 39000,
    "location": { "type": "Point", "coordinates": [77.7235, 13.2120], "area": "Narasapura" }
  },
  {
    "name": "M/s. Tech Logic, Unit-2",
    "address": "Shed No. 36, 2nd Main, Ranganathapura, Bangalore - 560044",
    "capacity": 360,
    "location": { "type": "Point", "coordinates": [77.5540, 12.9530], "area": "Ranganathapura" }
  },
  {
    "name": "M/s. E-Scrapy Recyclers",
    "address": "Byreshwara Industrial Area, Peenya 2nd Stage, Bangalore - 560058",
    "capacity": 720,
    "location": { "type": "Point", "coordinates": [77.5160, 13.0260], "area": "Peenya" }
  },
  {
    "name": "M/s. KH E-Waste Recyclers",
    "address": "No. 104, 1st Main Road, 4th Cross, Azeez Sait Industrial Area, Nayandahalli",
    "capacity": 360,
    "location": { "type": "Point", "coordinates": [77.5160, 13.0260], "area": "Nayandahalli" }
  },
  {
    "name": "M/s. RPN Industries",
    "address": "Plot No B2, KSSIDC Industrial Area, Kumbalgodu, Mysore Road, Bangalore",
    "capacity": 312,
    "location": { "type": "Point", "coordinates": [77.5175, 12.9170], "area": "Kumbalgodu" }
  },
  {
    "name": "M/s. I Seven",
    "address": "# 9/4, Kachohalli Industrial Estate, Laxmipura Post, Bengaluru-562123",
    "capacity": 300,
    "location": { "type": "Point", "coordinates": [77.6420, 13.0460], "area": "Kachohalli" }
  },
  {
    "name": "M/s. Greenscape Eco Management Pvt. Ltd.",
    "address": "Plot No. R-12, Veerasandra Indl Area, Anekal Tq, Bangalore Urban District",
    "capacity": 600,
    "location": { "type": "Point", "coordinates": [77.6790, 12.8380], "area": "Veerasandra" }
  },
  {
    "name": "M/s. Trishyirya Recycling India Pvt. Ltd.",
    "address": "No. 315, 4th Phase, Peenya Industrial Estate, Bangalore - 560058",
    "capacity": 360,
    "location": { "type": "Point", "coordinates": [77.5160, 13.0260], "area": "Peenya" }
  },
  {
    "name": "M/s. Ingram Micro India Pvt. Ltd.",
    "address": "I Floor, Plot No. 1-4, Singasandra Post, Hosur Main Road, Bangalore- 560100",
    "capacity": 300,
    "location": { "type": "Point", "coordinates": [77.6400, 12.8440], "area": "Singasandra/Hosur Road" }
  },
  {
    "name": "M/s. Vans Chemistry",
    "address": "Plot No. 94/5, Shed NO. 13R14, SRRLayout, Kannalli Village, Bangalore-560094",
    "capacity": 1440,
    "location": { "type": "Point", "coordinates": [77.5900, 12.9430], "area": "Kannalli" }
  },
  {
    "name": "M/s. Sheltron Digital systems Pvt.Ltd",
    "address": "No.27, Maney estate, Sy.no.121, Kumbalgodu, Bengaluru-560074",
    "capacity": 360,
    "location": { "type": "Point", "coordinates": [77.5175, 12.9170], "area": "Kumbalgodu" }
  },
  {
    "name": "M/s. Amara metals enterprises",
    "address": "No V20/1, 4th main, 2nd stage, Peenya Industrial Area, Bengaluru -560058",
    "capacity": 1080,
    "location": { "type": "Point", "coordinates": [77.5160, 13.0260], "area": "Peenya" }
  },
  {
    "name": "M/s. Gopalan reprocessors India Pvt Ltd",
    "address": "No.131, A Main Road, Industrial Suburb, Peenya II Stage, Bengaluru",
    "capacity": 600,
    "location": { "type": "Point", "coordinates": [77.5160, 13.0260], "area": "Peenya" }
  },
  {
    "name": "M/s. IKON Recyclers",
    "address": "Plot No.5, Ground & 2nd Floor, 2nd Cross, 2nd Main Road, Magadi Road, Bengaluru -560079",
    "capacity": 300,
    "location": { "type": "Point", "coordinates": [77.4840, 13.0100], "area": "Magadi Road" }
  },
  {
    "name": "M/s. Communication Test Design, India Pvt Ltd",
    "address": "Plot No 48, Near Balaji Temple, Peenya II Phase, Bengaluru -560058",
    "capacity": 1008,
    "location": { "type": "Point", "coordinates": [77.5160, 13.0260], "area": "Peenya" }
  },
  {
    "name": "M/s. JSA Web solutions",
    "address": "Plot No. 93 A-4, Phase II, Jigani Industrial Area, Jigani Hobli, Anekal Taluk Bengaluru",
    "capacity": 360,
    "location": { "type": "Point", "coordinates": [77.5778, 12.8086], "area": "Jigani" }
  },
  {
    "name": "M/s. Return lab Recyclers pvt ltd.",
    "address": "P.no.68, SW-51, Phase-2, Doddaballapura Apparel Park, Bengaluru-561203",
    "capacity": 360,
    "location": { "type": "Point", "coordinates": [77.543210, 13.279550], "area": "Doddaballapur Apparel Park" }
  },
  {
    "name": "M/s. Prakruthi Recycling Pvt. Ltd.",
    "address": "Rajajinagar, Bangalore - 560010",
    "capacity": 999.6,
    "location": { "type": "Point", "coordinates": [77.5555, 12.9970], "area": "Rajajinagar" }
  },
  {
    "name": "M/s. Elxion Pvt. Ltd.",
    "address": "P. No. 24, 23rd A. Main Road, J.P Nagar 2nd Phase Indl Bangalore-560078",
    "capacity": 360,
    "location": { "type": "Point", "coordinates": [77.5730, 12.9250], "area": "JP Nagar" }
  },
  {
    "name": "M/s. 4R Recycling Pvt Ltd",
    "address": "Peenya 3rd Stage Industrial area, Nallakadirenahalli Village, Yeshwanthpur Hobli, Bangalore",
    "capacity": 900,
    "location": { "type": "Point", "coordinates": [77.5170, 13.0360], "area": "Peenya 3rd Stage" }
  },
  {
    "name": "M/s. Sogo Synergy Private Limited",
    "address": "Shed No. A57, KSSIDC Industrial Estate, Bommasandra, Hosur Road, Anekal Taluk, Bangalore Urban District – 560099",
    "capacity": 1296,
    "location": { "type": "Point", "coordinates": [77.6908, 12.8390], "area": "Bommasandra" }
  },
  {
    "name": "M/s. Think Recycling Pvt Ltd",
    "address": "Plot No B-77 KSSIDC Industrial Area, Bommasandra, Bengaluru 560099",
    "capacity": 600,
    "location": { "type": "Point", "coordinates": [77.6908, 12.8390], "area": "Bommasandra" }
  }
]
